{
"type": "FeatureCollection",
"name": "chicago_data_centers_183",
"crs": { "type": "name", "properties": { "name": "urn:ogc:def:crs:OGC:1.3:CRS84" } },
"features": [
{ "type": "Feature", "properties": { "name": "Data CentersUSAIllinoisChicago", "operator": "Chicago Data Centers", "street": "Below you will find locations of 183 data centers in Chicago, Illinois.", "city": "To find other data center locations and colocation, cloud or connectivity providers in Illinois, please click here.", "state": "IL", "postal_code": null, "country": "USA", "full_address": "Below you will find locations of 183 data centers in Chicago, Illinois., To find other data center locations and colocation, cloud or connectivity providers in Illinois, please click here., IL, USA", "source": "DataCenterMap (user-provided paste)", "notes": null, "lat": null, "lon": null }, "geometry": null },
{ "type": "Feature", "properties": { "name": "Digital Realty", "operator": "Digital Realty brings companies and data together in bold new ways in Illinois", "street": "350 East Cermak Road (ORD10)", "city": "Digital Realty", "state": "IL", "postal_code": null, "country": "USA", "full_address": "350 East Cermak Road (ORD10), Digital Realty, IL, USA", "source": "DataCenterMap (user-provided paste)", "notes": null, "lat": null, "lon": null }, "geometry": null },
{ "type": "Feature", "properties": { "name": "600 S. Federal St. (ORD11)", "operator": "Digital Realty", "street": "600 South Federal Street", "city": "Chicago", "state": "IL", "postal_code": 60605.0, "country": "USA", "full_address": "600 South Federal Street, Chicago, IL, 60605, USA", "source": "DataCenterMap (user-provided paste)", "notes": null, "lat": 41.8743061, "lon": -87.6299404 }, "geometry": { "type": "Point", "coordinates": [ -87.6299404, 41.8743061 ] } },
{ "type": "Feature", "properties": { "name": "505 N. Railroad Avenue (ORD23)", "operator": "Digital Realty", "street": "505 North Railroad Avenue", "city": "Northlake", "state": "IL", "postal_code": 60164.0, "country": "USA", "full_address": "505 North Railroad Avenue, Northlake, IL, 60164, USA", "source": "DataCenterMap (user-provided paste)", "notes": null, "lat": 41.9189911, "lon": -87.9128954 }, "geometry": { "type": "Point", "coordinates": [ -87.9128954, 41.9189911 ] } },
{ "type": "Feature", "properties": { "name": "2200 Busse Road (CH1)", "operator": "Digital Realty", "street": "2200 Busse Road", "city": "Elk Grove Village", "state": "IL", "postal_code": 60007.0, "country": "USA", "full_address": "2200 Busse Road, Elk Grove Village, IL, 60007, USA", "source": "DataCenterMap (user-provided paste)", "notes": null, "lat": 41.9973883, "lon": -87.9595107 }, "geometry": { "type": "Point", "coordinates": [ -87.9595107, 41.9973883 ] } },
{ "type": "Feature", "properties": { "name": "9333 Grand Avenue (ORD12)", "operator": "Digital Realty", "street": "9333 Grand Ave", "city": "Franklin Park", "state": "IL", "postal_code": 60131.0, "country": "USA", "full_address": "9333 Grand Ave, Franklin Park, IL, 60131, USA", "source": "DataCenterMap (user-provided paste)", "notes": null, "lat": 41.9283705, "lon": -87.8592552 }, "geometry": { "type": "Point", "coordinates": [ -87.8592552, 41.9283705 ] } },
{ "type": "Feature", "properties": { "name": "9355 Grand Ave (ORD13)", "operator": "Digital Realty", "street": "9355 Grand Ave", "city": "Franklin Park", "state": "IL", "postal_code": 60131.0, "country": "USA", "full_address": "9355 Grand Ave, Franklin Park, IL, 60131, USA", "source": "DataCenterMap (user-provided paste)", "notes": null, "lat": 41.9290818, "lon": -87.8587696 }, "geometry": { "type": "Point", "coordinates": [ -87.8587696, 41.9290818 ] } },
{ "type": "Feature", "properties": { "name": "9377 Grand Ave (ORD14)", "operator": "Digital Realty", "street": "9377 Grand Ave", "city": "Franklin Park", "state": "IL", "postal_code": 60131.0, "country": "USA", "full_address": "9377 Grand Ave, Franklin Park, IL, 60131, USA", "source": "DataCenterMap (user-provided paste)", "notes": null, "lat": 41.9291102, "lon": -87.8594098 }, "geometry": { "type": "Point", "coordinates": [ -87.8594098, 41.9291102 ] } },
{ "type": "Feature", "properties": { "name": "1400 East Devon Avenue (CH3)", "operator": "Digital Realty", "street": "1400 East Devon Avenue", "city": "Elk Grove Village", "state": "IL", "postal_code": 60007.0, "country": "USA", "full_address": "1400 East Devon Avenue, Elk Grove Village, IL, 60007, USA", "source": "DataCenterMap (user-provided paste)", "notes": null, "lat": 41.9927374, "lon": -87.9968732 }, "geometry": { "type": "Point", "coordinates": [ -87.9968732, 41.9927374 ] } },
{ "type": "Feature", "properties": { "name": "2425-2553 Edgington Street (ORD22)", "operator": "Digital Realty", "street": "2425-2553 Edgington St", "city": "Franklin Park", "state": "IL", "postal_code": 60131.0, "country": "USA", "full_address": "2425-2553 Edgington St, Franklin Park, IL, 60131, USA", "source": "DataCenterMap (user-provided paste)", "notes": null, "lat": null, "lon": null }, "geometry": null },
{ "type": "Feature", "properties": { "name": "2299 Busse Road (CH2)", "operator": "Digital Realty", "street": "2299 Busse Road", "city": "Elk Grove Village", "state": "IL", "postal_code": 60007.0, "country": "USA", "full_address": "2299 Busse Road, Elk Grove Village, IL, 60007, USA", "source": "DataCenterMap (user-provided paste)", "notes": null, "lat": 41.9943723, "lon": -87.9577476 }, "geometry": { "type": "Point", "coordinates": [ -87.9577476, 41.9943723 ] } },
{ "type": "Feature", "properties": { "name": "9401 West Grand Avenue (ORD15)", "operator": "Digital Realty", "street": "9401 W Grand Ave", "city": "Franklin Park", "state": "IL", "postal_code": 60131.0, "country": "USA", "full_address": "9401 W Grand Ave, Franklin Park, IL, 60131, USA", "source": "DataCenterMap (user-provided paste)", "notes": null, "lat": 41.9293885, "lon": -87.8603427 }, "geometry": { "type": "Point", "coordinates": [ -87.8603427, 41.9293885 ] } },
{ "type": "Feature", "properties": { "name": "Hivelocity - Chicago 1", "operator": "Hivelocity", "street": "350 East Cermak Road", "city": "Chicago", "state": "IL", "postal_code": 60616.0, "country": "USA", "full_address": "350 East Cermak Road, Chicago, IL, 60616, USA", "source": "DataCenterMap (user-provided paste)", "notes": null, "lat": 41.8537537, "lon": -87.6183798 }, "geometry": { "type": "Point", "coordinates": [ -87.6183798, 41.8537537 ] } },
{ "type": "Feature", "properties": { "name": "CyrusOne CHI5 - Lombard", "operator": "CyrusOne Data Centers", "street": "1850 Springers Drive", "city": "Lombard", "state": "IL", "postal_code": 60148.0, "country": "USA", "full_address": "1850 Springers Drive, Lombard, IL, 60148, USA", "source": "DataCenterMap (user-provided paste)", "notes": null, "lat": null, "lon": null }, "geometry": null },
{ "type": "Feature", "properties": { "name": "GDC - Chicago CH1 Data Center", "operator": "NTT DATA, Inc.", "street": "255 Pierce Road", "city": "Itasca", "state": "IL", "postal_code": 60143.0, "country": "USA", "full_address": "255 Pierce Road, Itasca, IL, 60143, USA", "source": "DataCenterMap (user-provided paste)", "notes": null, "lat": 41.9879129, "lon": -88.0072248 }, "geometry": { "type": "Point", "coordinates": [ -88.0072248, 41.9879129 ] } },
{ "type": "Feature", "properties": { "name": "CyrusOne CHI2 - Aurora", "operator": "CyrusOne Data Centers", "street": "2805 Diehl Rd", "city": "Aurora", "state": "IL", "postal_code": 60502.0, "country": "USA", "full_address": "2805 Diehl Rd, Aurora, IL, 60502, USA", "source": "DataCenterMap (user-provided paste)", "notes": null, "lat": 41.7968027, "lon": -88.2436876 }, "geometry": { "type": "Point", "coordinates": [ -88.2436876, 41.7968027 ] } },
{ "type": "Feature", "properties": { "name": "Summit Elk Grove Village", "operator": "Summit (formerly Deft)", "street": "2200 Busse Rd", "city": "Elk Grove Village", "state": "IL", "postal_code": 60007.0, "country": "USA", "full_address": "2200 Busse Rd, Elk Grove Village, IL, 60007, USA", "source": "DataCenterMap (user-provided paste)", "notes": null, "lat": 41.9973883, "lon": -87.9595107 }, "geometry": { "type": "Point", "coordinates": [ -87.9595107, 41.9973883 ] } },
{ "type": "Feature", "properties": { "name": "Centersquare - Chicago ORD4-A", "operator": "Csquare", "street": "4513 Western Ave", "city": "Lisle", "state": "IL", "postal_code": 60532.0, "country": "USA", "full_address": "4513 Western Ave, Lisle, IL, 60532, USA", "source": "DataCenterMap (user-provided paste)", "notes": null, "lat": 41.8023406, "lon": -88.0948856 }, "geometry": { "type": "Point", "coordinates": [ -88.0948856, 41.8023406 ] } },
{ "type": "Feature", "properties": { "name": "T5 Data Centers - T5@Chicago", "operator": "T5 Data Centers", "street": "200 Innovation Dr", "city": "Elk Grove Village", "state": "IL", "postal_code": 60007.0, "country": "USA", "full_address": "200 Innovation Dr, Elk Grove Village, IL, 60007, USA", "source": "DataCenterMap (user-provided paste)", "notes": null, "lat": 42.0230423, "lon": -87.9755568 }, "geometry": { "type": "Point", "coordinates": [ -87.9755568, 42.0230423 ] } },
{ "type": "Feature", "properties": { "name": "Serverfarm Chicago Data Center CH1", "operator": "Serverfarm", "street": "840 S. Canal Street", "city": "Chicago", "state": "IL", "postal_code": 60607.0, "country": "USA", "full_address": "840 S. Canal Street, Chicago, IL, 60607, USA", "source": "DataCenterMap (user-provided paste)", "notes": null, "lat": 41.8717114, "lon": -87.6392312 }, "geometry": { "type": "Point", "coordinates": [ -87.6392312, 41.8717114 ] } },
{ "type": "Feature", "properties": { "name": "Netrality - 717 S Wells", "operator": "Netrality", "street": "717 S. Wells", "city": "Chicago", "state": "IL", "postal_code": 60607.0, "country": "USA", "full_address": "717 S. Wells, Chicago, IL, 60607, USA", "source": "DataCenterMap (user-provided paste)", "notes": null, "lat": 41.8728811, "lon": -87.63344 }, "geometry": { "type": "Point", "coordinates": [ -87.63344, 41.8728811 ] } },
{ "type": "Feature", "properties": { "name": "Prime Chicago Data Center Campus", "operator": "Prime Data Centers", "street": "1701 Midway Ct", "city": "Elk Grove Village", "state": "IL", "postal_code": 60007.0, "country": "USA", "full_address": "1701 Midway Ct, Elk Grove Village, IL, 60007, USA", "source": "DataCenterMap (user-provided paste)", "notes": null, "lat": 42.0248505, "lon": -87.9617208 }, "geometry": { "type": "Point", "coordinates": [ -87.9617208, 42.0248505 ] } },
{ "type": "Feature", "properties": { "name": "Prime Chicago - Building 3", "operator": "Prime Data Centers", "street": "1701 Midway Court", "city": "Elk Grove Village", "state": "IL", "postal_code": 60007.0, "country": "USA", "full_address": "1701 Midway Court, Elk Grove Village, IL, 60007, USA", "source": "DataCenterMap (user-provided paste)", "notes": null, "lat": 42.0248505, "lon": -87.9617208 }, "geometry": { "type": "Point", "coordinates": [ -87.9617208, 42.0248505 ] } },
{ "type": "Feature", "properties": { "name": "Prime Chicago - Building 1", "operator": "Prime Data Centers", "street": "1500 E Higgins Rd, Elk Grove Village, IL 60007, USA", "city": "Elk Grove Village", "state": "IL", "postal_code": 60007.0, "country": "USA", "full_address": "1500 E Higgins Rd, Elk Grove Village, IL 60007, USA, Elk Grove Village, IL, 60007, USA", "source": "DataCenterMap (user-provided paste)", "notes": null, "lat": null, "lon": null }, "geometry": null },
{ "type": "Feature", "properties": { "name": "Summit Chicago", "operator": "Summit (formerly Deft)", "street": "350 East Cermak Road", "city": "Chicago", "state": "IL", "postal_code": 60616.0, "country": "USA", "full_address": "350 East Cermak Road, Chicago, IL, 60616, USA", "source": "DataCenterMap (user-provided paste)", "notes": null, "lat": 41.8537537, "lon": -87.6183798 }, "geometry": { "type": "Point", "coordinates": [ -87.6183798, 41.8537537 ] } },
{ "type": "Feature", "properties": { "name": "Iron Mountain Data Centers CHI-1", "operator": "Iron Mountain Data Centers", "street": "1680 Touhy Avenue", "city": "Des Plaines", "state": "IL", "postal_code": 60018.0, "country": "USA", "full_address": "1680 Touhy Avenue, Des Plaines, IL, 60018, USA", "source": "DataCenterMap (user-provided paste)", "notes": null, "lat": 42.0112359, "lon": -87.8812032 }, "geometry": { "type": "Point", "coordinates": [ -87.8812032, 42.0112359 ] } },
{ "type": "Feature", "properties": { "name": "Colocation America CHIDC1", "operator": "Colocation America", "street": "350 E. Cermak Rd", "city": "Chicago", "state": "IL", "postal_code": 60616.0, "country": "USA", "full_address": "350 E. Cermak Rd, Chicago, IL, 60616, USA", "source": "DataCenterMap (user-provided paste)", "notes": null, "lat": 41.8537537, "lon": -87.6183798 }, "geometry": { "type": "Point", "coordinates": [ -87.6183798, 41.8537537 ] } },
{ "type": "Feature", "properties": { "name": "CyrusOne CHI1 - Aurora", "operator": "CyrusOne Data Centers", "street": "2905 Diehl Rd.", "city": "Lombard", "state": "IL", "postal_code": 60148.0, "country": "USA", "full_address": "2905 Diehl Rd., Lombard, IL, 60148, USA", "source": "DataCenterMap (user-provided paste)", "notes": null, "lat": null, "lon": null }, "geometry": null },
{ "type": "Feature", "properties": { "name": "Legacy - Chicago Byte Exchange", "operator": "Legacy Investing", "street": "400 S LaSalle St", "city": "Chicago", "state": "IL", "postal_code": 60605.0, "country": "USA", "full_address": "400 S LaSalle St, Chicago, IL, 60605, USA", "source": "DataCenterMap (user-provided paste)", "notes": null, "lat": 41.8765902, "lon": -87.6322191 }, "geometry": { "type": "Point", "coordinates": [ -87.6322191, 41.8765902 ] } },
{ "type": "Feature", "properties": { "name": "Prime Chicago - Building 2", "operator": "Prime Data Centers", "street": "1600 Oakton St", "city": "Elk Grove Village", "state": "IL", "postal_code": 60007.0, "country": "USA", "full_address": "1600 Oakton St, Elk Grove Village, IL, 60007, USA", "source": "DataCenterMap (user-provided paste)", "notes": null, "lat": 42.0223244, "lon": -87.9611027 }, "geometry": { "type": "Point", "coordinates": [ -87.9611027, 42.0223244 ] } },
{ "type": "Feature", "properties": { "name": "Apotech Data Center", "operator": "Apotech", "street": "1331 E Business Center Dr", "city": "Mt Prospect", "state": "IL", "postal_code": 60056.0, "country": "USA", "full_address": "1331 E Business Center Dr, Mt Prospect, IL, 60056, USA", "source": "DataCenterMap (user-provided paste)", "notes": null, "lat": 42.0786106, "lon": -87.9166896 }, "geometry": { "type": "Point", "coordinates": [ -87.9166896, 42.0786106 ] } },
{ "type": "Feature", "properties": { "name": "TierPoint Chicago - Polk", "operator": "TierPoint", "street": "601 W. Polk St.", "city": "Chicago", "state": "IL", "postal_code": 60607.0, "country": "USA", "full_address": "601 W. Polk St., Chicago, IL, 60607, USA", "source": "DataCenterMap (user-provided paste)", "notes": null, "lat": 41.8716062, "lon": -87.6430697 }, "geometry": { "type": "Point", "coordinates": [ -87.6430697, 41.8716062 ] } },
{ "type": "Feature", "properties": { "name": "Element Critical Chicago One", "operator": "Element Critical", "street": "711 N. Edgewood Ave.", "city": "Wood Dale", "state": "IL", "postal_code": 60191.0, "country": "USA", "full_address": "711 N. Edgewood Ave., Wood Dale, IL, 60191, USA", "source": "DataCenterMap (user-provided paste)", "notes": null, "lat": 41.9757174, "lon": -87.9646568 }, "geometry": { "type": "Point", "coordinates": [ -87.9646568, 41.9757174 ] } },
{ "type": "Feature", "properties": { "name": "Skybox Chicago I", "operator": "Skybox Datacenters", "street": "800 E Devon Ave", "city": "Elk Grove Village", "state": "IL", "postal_code": 60007.0, "country": "USA", "full_address": "800 E Devon Ave, Elk Grove Village, IL, 60007, USA", "source": "DataCenterMap (user-provided paste)", "notes": null, "lat": 41.993016, "lon": -87.975268 }, "geometry": { "type": "Point", "coordinates": [ -87.975268, 41.993016 ] } },
{ "type": "Feature", "properties": { "name": "DataBank ORD4 - Chicago Tri-State", "operator": "DataBank", "street": "1808 Swift Dr", "city": "Oak Brook", "state": "IL", "postal_code": 60523.0, "country": "USA", "full_address": "1808 Swift Dr, Oak Brook, IL, 60523, USA", "source": "DataCenterMap (user-provided paste)", "notes": null, "lat": 41.8542957, "lon": -87.9221419 }, "geometry": { "type": "Point", "coordinates": [ -87.9221419, 41.8542957 ] } },
{ "type": "Feature", "properties": { "name": "DataBank ORD3 - Mount Prospect", "operator": "DataBank", "street": "800 E Business Center Dr", "city": "Mt. Prospect", "state": "IL", "postal_code": 60056.0, "country": "USA", "full_address": "800 E Business Center Dr, Mt. Prospect, IL, 60056, USA", "source": "DataCenterMap (user-provided paste)", "notes": null, "lat": 42.07581, "lon": -87.925736 }, "geometry": { "type": "Point", "coordinates": [ -87.925736, 42.07581 ] } },
{ "type": "Feature", "properties": { "name": "Cogent Data Center - Chicago 1", "operator": "Cogent Communications, Inc.", "street": "427 LaSalle St", "city": "Chicago", "state": "IL", "postal_code": 60606.0, "country": "USA", "full_address": "427 LaSalle St, Chicago, IL, 60606, USA", "source": "DataCenterMap (user-provided paste)", "notes": null, "lat": 41.8761537, "lon": -87.6316615 }, "geometry": { "type": "Point", "coordinates": [ -87.6316615, 41.8761537 ] } },
{ "type": "Feature", "properties": { "name": "Cogent Data Center - Chicago 2", "operator": "Cogent Communications, Inc.", "street": "216 W. Jackson Blvd", "city": "Chicago", "state": "IL", "postal_code": 60606.0, "country": "USA", "full_address": "216 W. Jackson Blvd, Chicago, IL, 60606, USA", "source": "DataCenterMap (user-provided paste)", "notes": null, "lat": 41.8784309, "lon": -87.6344989 }, "geometry": { "type": "Point", "coordinates": [ -87.6344989, 41.8784309 ] } },
{ "type": "Feature", "properties": { "name": "Element Critical Chicago Two", "operator": "Element Critical", "street": "341 Haynes Dr", "city": "Wood Dale", "state": "IL", "postal_code": 60191.0, "country": "USA", "full_address": "341 Haynes Dr, Wood Dale, IL, 60191, USA", "source": "DataCenterMap (user-provided paste)", "notes": null, "lat": 41.9742277, "lon": -87.9671756 }, "geometry": { "type": "Point", "coordinates": [ -87.9671756, 41.9742277 ] } },
{ "type": "Feature", "properties": { "name": "Colocation America CHIDC4", "operator": "Colocation America", "street": "1808 Swift Dr.", "city": "Oak Brook", "state": "IL", "postal_code": 60523.0, "country": "USA", "full_address": "1808 Swift Dr., Oak Brook, IL, 60523, USA", "source": "DataCenterMap (user-provided paste)", "notes": null, "lat": 41.8542957, "lon": -87.9221419 }, "geometry": { "type": "Point", "coordinates": [ -87.9221419, 41.8542957 ] } },
{ "type": "Feature", "properties": { "name": "Equinix CH4", "operator": "Equinix", "street": "350 E Cermak Rd", "city": "Chicago", "state": "IL", "postal_code": 60616.0, "country": "USA", "full_address": "350 E Cermak Rd, Chicago, IL, 60616, USA", "source": "DataCenterMap (user-provided paste)", "notes": null, "lat": 41.8537537, "lon": -87.6183798 }, "geometry": { "type": "Point", "coordinates": [ -87.6183798, 41.8537537 ] } },
{ "type": "Feature", "properties": { "name": "TierPoint Chicago - West", "operator": "TierPoint", "street": "9333 West Grand Ave.", "city": "Franklin Park", "state": "IL", "postal_code": 60131.0, "country": "USA", "full_address": "9333 West Grand Ave., Franklin Park, IL, 60131, USA", "source": "DataCenterMap (user-provided paste)", "notes": null, "lat": 41.9283705, "lon": -87.8592552 }, "geometry": { "type": "Point", "coordinates": [ -87.8592552, 41.9283705 ] } },
{ "type": "Feature", "properties": { "name": "Equinix CH7", "operator": "Equinix", "street": "111 Plaza Drive", "city": "Westmont", "state": "IL", "postal_code": 60559.0, "country": "USA", "full_address": "111 Plaza Drive, Westmont, IL, 60559, USA", "source": "DataCenterMap (user-provided paste)", "notes": null, "lat": 41.8129474, "lon": -87.9729262 }, "geometry": { "type": "Point", "coordinates": [ -87.9729262, 41.8129474 ] } },
{ "type": "Feature", "properties": { "name": "US Signal Chicago IL01", "operator": "US Signal Company, LLC", "street": "810 Jorie Blvd", "city": "Oak Brook", "state": "IL", "postal_code": 60523.0, "country": "USA", "full_address": "810 Jorie Blvd, Oak Brook, IL, 60523, USA", "source": "DataCenterMap (user-provided paste)", "notes": null, "lat": 41.8408585, "lon": -87.9490751 }, "geometry": { "type": "Point", "coordinates": [ -87.9490751, 41.8408585 ] } },
{ "type": "Feature", "properties": { "name": "STACK Infrastructure CHI01B", "operator": "STACK INFRASTRUCTURE", "street": "1301 Touhy Ave", "city": "Elk Grove Village", "state": "IL", "postal_code": 60007.0, "country": "USA", "full_address": "1301 Touhy Ave, Elk Grove Village, IL, 60007, USA", "source": "DataCenterMap (user-provided paste)", "notes": null, "lat": 42.0075827, "lon": -87.9668568 }, "geometry": { "type": "Point", "coordinates": [ -87.9668568, 42.0075827 ] } },
{ "type": "Feature", "properties": { "name": "DataBank ORD2 - Chicago", "operator": "DataBank", "street": "840 S Canal St", "city": "Chicago", "state": "IL", "postal_code": 60607.0, "country": "USA", "full_address": "840 S Canal St, Chicago, IL, 60607, USA", "source": "DataCenterMap (user-provided paste)", "notes": null, "lat": 41.8717114, "lon": -87.6392312 }, "geometry": { "type": "Point", "coordinates": [ -87.6392312, 41.8717114 ] } },
{ "type": "Feature", "properties": { "name": "DataBank ORD1 - Downtown Chicago", "operator": "DataBank", "street": "600 S Federal St", "city": "Chicago", "state": "IL", "postal_code": 60605.0, "country": "USA", "full_address": "600 S Federal St, Chicago, IL, 60605, USA", "source": "DataCenterMap (user-provided paste)", "notes": null, "lat": 41.8743061, "lon": -87.6299404 }, "geometry": { "type": "Point", "coordinates": [ -87.6299404, 41.8743061 ] } },
{ "type": "Feature", "properties": { "name": "EdgeConneX Chicago - EDCCHI02", "operator": "EdgeConneX", "street": "2021 Lunt Ave", "city": "Elk Grove Village", "state": "IL", "postal_code": 60007.0, "country": "USA", "full_address": "2021 Lunt Ave, Elk Grove Village, IL, 60007, USA", "source": "DataCenterMap (user-provided paste)", "notes": null, "lat": 42.0014947, "lon": -87.9525634 }, "geometry": { "type": "Point", "coordinates": [ -87.9525634, 42.0014947 ] } },
{ "type": "Feature", "properties": { "name": "Stream DC Chicago I", "operator": "Stream Data Centers", "street": "2080 Lunt Avenue", "city": "Elk Grove Village", "state": "IL", "postal_code": 60007.0, "country": "USA", "full_address": "2080 Lunt Avenue, Elk Grove Village, IL, 60007, USA", "source": "DataCenterMap (user-provided paste)", "notes": null, "lat": 42.002578, "lon": -87.95111 }, "geometry": { "type": "Point", "coordinates": [ -87.95111, 42.002578 ] } },
{ "type": "Feature", "properties": { "name": "Centersquare - Chicago ORD1-A", "operator": "Csquare", "street": "350 East Cermak", "city": "Chicago", "state": "IL", "postal_code": 60616.0, "country": "USA", "full_address": "350 East Cermak, Chicago, IL, 60616, USA", "source": "DataCenterMap (user-provided paste)", "notes": null, "lat": 41.8537537, "lon": -87.6183798 }, "geometry": { "type": "Point", "coordinates": [ -87.6183798, 41.8537537 ] } },
{ "type": "Feature", "properties": { "name": "HydraVault Data Center", "operator": "HydraVault", "street": "2538 S Wabash Ave", "city": "Chicago", "state": "IL", "postal_code": 60616.0, "country": "USA", "full_address": "2538 S Wabash Ave, Chicago, IL, 60616, USA", "source": "DataCenterMap (user-provided paste)", "notes": null, "lat": 41.846546, "lon": -87.6254598 }, "geometry": { "type": "Point", "coordinates": [ -87.6254598, 41.846546 ] } },
{ "type": "Feature", "properties": { "name": "SBA Edge Chicago", "operator": "SBA Edge", "street": "603 Discovery Drive", "city": "West Chicago", "state": "IL", "postal_code": 60185.0, "country": "USA", "full_address": "603 Discovery Drive, West Chicago, IL, 60185, USA", "source": "DataCenterMap (user-provided paste)", "notes": null, "lat": 41.875931, "lon": -88.2489669 }, "geometry": { "type": "Point", "coordinates": [ -88.2489669, 41.875931 ] } },
{ "type": "Feature", "properties": { "name": "Centersquare - Chicago ORD1-D", "operator": "Csquare", "street": "350 E Cermak Rd", "city": "Chicago", "state": "IL", "postal_code": 60616.0, "country": "USA", "full_address": "350 E Cermak Rd, Chicago, IL, 60616, USA", "source": "DataCenterMap (user-provided paste)", "notes": null, "lat": 41.8537537, "lon": -87.6183798 }, "geometry": { "type": "Point", "coordinates": [ -87.6183798, 41.8537537 ] } },
{ "type": "Feature", "properties": { "name": "CoreSite Chicago (CH1)", "operator": "CoreSite", "street": "427 South LaSalle", "city": "Chicago", "state": "IL", "postal_code": 60605.0, "country": "USA", "full_address": "427 South LaSalle, Chicago, IL, 60605, USA", "source": "DataCenterMap (user-provided paste)", "notes": null, "lat": 41.8763329, "lon": -87.6314808 }, "geometry": { "type": "Point", "coordinates": [ -87.6314808, 41.8763329 ] } },
{ "type": "Feature", "properties": { "name": "Centersquare - Chicago ORD1-C", "operator": "Csquare", "street": "350 E Cermak Rd", "city": "Chicago", "state": "IL", "postal_code": 60616.0, "country": "USA", "full_address": "350 E Cermak Rd, Chicago, IL, 60616, USA", "source": "DataCenterMap (user-provided paste)", "notes": null, "lat": 41.8537537, "lon": -87.6183798 }, "geometry": { "type": "Point", "coordinates": [ -87.6183798, 41.8537537 ] } },
{ "type": "Feature", "properties": { "name": "FirstComm Data Center", "operator": "First Communications", "street": "601 W Polk St", "city": "Chicago", "state": "IL", "postal_code": 60607.0, "country": "USA", "full_address": "601 W Polk St, Chicago, IL, 60607, USA", "source": "DataCenterMap (user-provided paste)", "notes": null, "lat": 41.8716062, "lon": -87.6430697 }, "geometry": { "type": "Point", "coordinates": [ -87.6430697, 41.8716062 ] } },
{ "type": "Feature", "properties": { "name": "ColoCrossing CH1", "operator": "ColoCrossing", "street": "2200 Busse Road", "city": "Elk Grove Village", "state": "IL", "postal_code": 60007.0, "country": "USA", "full_address": "2200 Busse Road, Elk Grove Village, IL, 60007, USA", "source": "DataCenterMap (user-provided paste)", "notes": null, "lat": 41.9973883, "lon": -87.9595107 }, "geometry": { "type": "Point", "coordinates": [ -87.9595107, 41.9973883 ] } },
{ "type": "Feature", "properties": { "name": "Metro Edge IMD1", "operator": "Metro Edge", "street": "1951 W Hastings St", "city": "Chicago", "state": "IL", "postal_code": 60608.0, "country": "USA", "full_address": "1951 W Hastings St, Chicago, IL, 60608, USA", "source": "DataCenterMap (user-provided paste)", "notes": null, "lat": 41.8639696, "lon": -87.6749686 }, "geometry": { "type": "Point", "coordinates": [ -87.6749686, 41.8639696 ] } },
{ "type": "Feature", "properties": { "name": "Stream DC Chicago II", "operator": "Stream Data Centers", "street": "1925 Busse Road", "city": "Elk Grove Village", "state": "IL", "postal_code": 60007.0, "country": "USA", "full_address": "1925 Busse Road, Elk Grove Village, IL, 60007, USA", "source": "DataCenterMap (user-provided paste)", "notes": null, "lat": 41.9991243, "lon": -87.9577646 }, "geometry": { "type": "Point", "coordinates": [ -87.9577646, 41.9991243 ] } },
{ "type": "Feature", "properties": { "name": "H5 Data Centers Chicago", "operator": "H5 Data Centers", "street": "1951 W. Hastings St.", "city": "Chicago", "state": "IL", "postal_code": 60608.0, "country": "USA", "full_address": "1951 W. Hastings St., Chicago, IL, 60608, USA", "source": "DataCenterMap (user-provided paste)", "notes": null, "lat": 41.8639696, "lon": -87.6749686 }, "geometry": { "type": "Point", "coordinates": [ -87.6749686, 41.8639696 ] } },
{ "type": "Feature", "properties": { "name": "CDW Elk Grove Data Center", "operator": "CDW Corporation", "street": "1441 Touhy Ave", "city": "Elk Grove Village", "state": "IL", "postal_code": 60007.0, "country": "USA", "full_address": "1441 Touhy Ave, Elk Grove Village, IL, 60007, USA", "source": "DataCenterMap (user-provided paste)", "notes": null, "lat": 42.0076156, "lon": -87.9644522 }, "geometry": { "type": "Point", "coordinates": [ -87.9644522, 42.0076156 ] } },
{ "type": "Feature", "properties": { "name": "725 S. Wells", "operator": "1547 Critical Systems Realty", "street": "725 S Wells", "city": "Chicago", "state": "IL", "postal_code": 60607.0, "country": "USA", "full_address": "725 S Wells, Chicago, IL, 60607, USA", "source": "DataCenterMap (user-provided paste)", "notes": null, "lat": 41.8730545, "lon": -87.6334853 }, "geometry": { "type": "Point", "coordinates": [ -87.6334853, 41.8730545 ] } },
{ "type": "Feature", "properties": { "name": "STACK Infrastructure CHI01A", "operator": "STACK INFRASTRUCTURE", "street": "1441 Touhy Ave", "city": "Elk Grove Village", "state": "IL", "postal_code": 60007.0, "country": "USA", "full_address": "1441 Touhy Ave, Elk Grove Village, IL, 60007, USA", "source": "DataCenterMap (user-provided paste)", "notes": null, "lat": 42.0076156, "lon": -87.9644522 }, "geometry": { "type": "Point", "coordinates": [ -87.9644522, 42.0076156 ] } },
{ "type": "Feature", "properties": { "name": "Digital Fortress Chicago", "operator": "Digital Fortress", "street": "360 E 22nd St.", "city": "Lombard", "state": "IL", "postal_code": 60148.0, "country": "USA", "full_address": "360 E 22nd St., Lombard, IL, 60148, USA", "source": "DataCenterMap (user-provided paste)", "notes": null, "lat": 41.8458113, "lon": -88.0072007 }, "geometry": { "type": "Point", "coordinates": [ -88.0072007, 41.8458113 ] } },
{ "type": "Feature", "properties": { "name": "GDC - Chicago CH3 Data Center", "operator": "NTT DATA, Inc.", "street": "255 Pierce Rd", "city": "Itasca", "state": "IL", "postal_code": 60143.0, "country": "USA", "full_address": "255 Pierce Rd, Itasca, IL, 60143, USA", "source": "DataCenterMap (user-provided paste)", "notes": null, "lat": 41.9879129, "lon": -88.0072248 }, "geometry": { "type": "Point", "coordinates": [ -88.0072248, 41.9879129 ] } },
{ "type": "Feature", "properties": { "name": "GDC - Chicago CH2 Data Center", "operator": "NTT DATA, Inc.", "street": "275 Pierce Rd", "city": "Itasca", "state": "IL", "postal_code": 60143.0, "country": "USA", "full_address": "275 Pierce Rd, Itasca, IL, 60143, USA", "source": "DataCenterMap (user-provided paste)", "notes": null, "lat": 41.9889604, "lon": -88.0072128 }, "geometry": { "type": "Point", "coordinates": [ -88.0072128, 41.9889604 ] } },
{ "type": "Feature", "properties": { "name": "Equinix CH1", "operator": "Equinix", "street": "350 E Cermak Rd", "city": "Chicago", "state": "IL", "postal_code": 60616.0, "country": "USA", "full_address": "350 E Cermak Rd, Chicago, IL, 60616, USA", "source": "DataCenterMap (user-provided paste)", "notes": null, "lat": 41.8537537, "lon": -87.6183798 }, "geometry": { "type": "Point", "coordinates": [ -87.6183798, 41.8537537 ] } },
{ "type": "Feature", "properties": { "name": "Equinix CH2", "operator": "Equinix", "street": "350 E Cermak Rd", "city": "Chicago", "state": "IL", "postal_code": 60616.0, "country": "USA", "full_address": "350 E Cermak Rd, Chicago, IL, 60616, USA", "source": "DataCenterMap (user-provided paste)", "notes": null, "lat": 41.8537537, "lon": -87.6183798 }, "geometry": { "type": "Point", "coordinates": [ -87.6183798, 41.8537537 ] } },
{ "type": "Feature", "properties": { "name": "Cogent Data Center - Chicago 3", "operator": "Cogent Communications, Inc.", "street": "4200 W 40th St", "city": "Chicago", "state": "IL", "postal_code": 60632.0, "country": "USA", "full_address": "4200 W 40th St, Chicago, IL, 60632, USA", "source": "DataCenterMap (user-provided paste)", "notes": null, "lat": 41.8200229, "lon": -87.7290064 }, "geometry": { "type": "Point", "coordinates": [ -87.7290064, 41.8200229 ] } },
{ "type": "Feature", "properties": { "name": "QTS Chicago 1 DC1", "operator": "QTS Data Centers", "street": "2800 S. Ashland Ave", "city": "Chicago", "state": "IL", "postal_code": 60608.0, "country": "USA", "full_address": "2800 S. Ashland Ave, Chicago, IL, 60608, USA", "source": "DataCenterMap (user-provided paste)", "notes": null, "lat": 41.8422076, "lon": -87.6689696 }, "geometry": { "type": "Point", "coordinates": [ -87.6689696, 41.8422076 ] } },
{ "type": "Feature", "properties": { "name": "Aligned ORD-01", "operator": "Aligned Data Centers", "street": "505 Northwest Avenue", "city": "Northlake", "state": "IL", "postal_code": 60164.0, "country": "USA", "full_address": "505 Northwest Avenue, Northlake, IL, 60164, USA", "source": "DataCenterMap (user-provided paste)", "notes": null, "lat": 41.9189097, "lon": -87.9192305 }, "geometry": { "type": "Point", "coordinates": [ -87.9192305, 41.9189097 ] } },
{ "type": "Feature", "properties": { "name": "365 Data Centers - Chicago 1", "operator": "365 Data Centers", "street": "427 S La Salle St", "city": "Chicago", "state": "IL", "postal_code": 60605.0, "country": "USA", "full_address": "427 S La Salle St, Chicago, IL, 60605, USA", "source": "DataCenterMap (user-provided paste)", "notes": null, "lat": 41.7978374, "lon": -87.6296911 }, "geometry": { "type": "Point", "coordinates": [ -87.6296911, 41.7978374 ] } },
{ "type": "Feature", "properties": { "name": "Microsoft Northlake", "operator": "Microsoft", "street": "601-605 Northwest Ave", "city": "Northlake", "state": "IL", "postal_code": 60164.0, "country": "USA", "full_address": "601-605 Northwest Ave, Northlake, IL, 60164, USA", "source": "DataCenterMap (user-provided paste)", "notes": null, "lat": 41.9263643, "lon": -87.9193284 }, "geometry": { "type": "Point", "coordinates": [ -87.9193284, 41.9263643 ] } },
{ "type": "Feature", "properties": { "name": "711 Ogden Avenue", "operator": "CloudCenters", "street": "711 Ogden Ave", "city": "Lisle", "state": "IL", "postal_code": 60532.0, "country": "USA", "full_address": "711 Ogden Ave, Lisle, IL, 60532, USA", "source": "DataCenterMap (user-provided paste)", "notes": null, "lat": 41.8022034, "lon": -88.0667438 }, "geometry": { "type": "Point", "coordinates": [ -88.0667438, 41.8022034 ] } },
{ "type": "Feature", "properties": { "name": "Centersquare - Chicago ORD2-A", "operator": "Csquare", "street": "2425 Busse Road", "city": "Elk Grove Village", "state": "IL", "postal_code": 60007.0, "country": "USA", "full_address": "2425 Busse Road, Elk Grove Village, IL, 60007, USA", "source": "DataCenterMap (user-provided paste)", "notes": null, "lat": 41.9923175, "lon": -87.9582323 }, "geometry": { "type": "Point", "coordinates": [ -87.9582323, 41.9923175 ] } },
{ "type": "Feature", "properties": { "name": "Ascent CH2", "operator": "Ascent", "street": "505 N Railroad Ave", "city": "Northlake", "state": "IL", "postal_code": 60164.0, "country": "USA", "full_address": "505 N Railroad Ave, Northlake, IL, 60164, USA", "source": "DataCenterMap (user-provided paste)", "notes": null, "lat": 41.9189911, "lon": -87.9128954 }, "geometry": { "type": "Point", "coordinates": [ -87.9128954, 41.9189911 ] } },
{ "type": "Feature", "properties": { "name": "CyrusOne CHI6 - Wood Dale", "operator": "CyrusOne Data Centers", "street": "Bryn Mawr Ave & Pine Ave", "city": "Wood Dale", "state": "IL", "postal_code": 60106.0, "country": "USA", "full_address": "Bryn Mawr Ave & Pine Ave, Wood Dale, IL, 60106, USA", "source": "DataCenterMap (user-provided paste)", "notes": null, "lat": null, "lon": null }, "geometry": null },
{ "type": "Feature", "properties": { "name": "CoreSite Chicago (CH2)", "operator": "CoreSite", "street": "1432 S Clinton St.", "city": "Chicago", "state": "IL", "postal_code": 60607.0, "country": "USA", "full_address": "1432 S Clinton St., Chicago, IL, 60607, USA", "source": "DataCenterMap (user-provided paste)", "notes": null, "lat": 41.8628, "lon": -87.6413029 }, "geometry": { "type": "Point", "coordinates": [ -87.6413029, 41.8628 ] } },
{ "type": "Feature", "properties": { "name": "CoreWeave Hammond", "operator": "CoreWeave", "street": "301 Digital Xrds Dr", "city": "Hammond", "state": "IL", "postal_code": 46320.0, "country": "USA", "full_address": "301 Digital Xrds Dr, Hammond, IL, 46320, USA", "source": "DataCenterMap (user-provided paste)", "notes": null, "lat": null, "lon": null }, "geometry": null },
{ "type": "Feature", "properties": { "name": "CloudHQ ORD Campus", "operator": "CloudHQ", "street": "1200 E Algonquin Rd", "city": "Des Plaines", "state": "IL", "postal_code": 60016.0, "country": "USA", "full_address": "1200 E Algonquin Rd, Des Plaines, IL, 60016, USA", "source": "DataCenterMap (user-provided paste)", "notes": null, "lat": 42.0314622, "lon": -87.8885543 }, "geometry": { "type": "Point", "coordinates": [ -87.8885543, 42.0314622 ] } },
{ "type": "Feature", "properties": { "name": "Equinix CH3", "operator": "Equinix", "street": "1905 Lunt Avenue", "city": "Elk Grove Village", "state": "IL", "postal_code": 60007.0, "country": "USA", "full_address": "1905 Lunt Avenue, Elk Grove Village, IL, 60007, USA", "source": "DataCenterMap (user-provided paste)", "notes": null, "lat": 42.0010752, "lon": -87.9552651 }, "geometry": { "type": "Point", "coordinates": [ -87.9552651, 42.0010752 ] } },
{ "type": "Feature", "properties": { "name": "STACK Infrastructure CHI02", "operator": "STACK INFRASTRUCTURE", "street": "1830 Jarvis Ave", "city": "Elk Grove Village", "state": "IL", "postal_code": 60007.0, "country": "USA", "full_address": "1830 Jarvis Ave, Elk Grove Village, IL, 60007, USA", "source": "DataCenterMap (user-provided paste)", "notes": null, "lat": 42.0133281, "lon": -87.9607381 }, "geometry": { "type": "Point", "coordinates": [ -87.9607381, 42.0133281 ] } },
{ "type": "Feature", "properties": { "name": "Rackspace Chicago", "operator": "Rackspace Hosting", "street": "2200 Busse Road", "city": "Elk Grove Village", "state": "IL", "postal_code": 60007.0, "country": "USA", "full_address": "2200 Busse Road, Elk Grove Village, IL, 60007, USA", "source": "DataCenterMap (user-provided paste)", "notes": null, "lat": 41.9973883, "lon": -87.9595107 }, "geometry": { "type": "Point", "coordinates": [ -87.9595107, 41.9973883 ] } },
{ "type": "Feature", "properties": { "name": "Chirisa Volo Technology Park YLO-02", "operator": "Chirisa", "street": "300 South Fish Lake Rd", "city": "Volo", "state": "IL", "postal_code": 60073.0, "country": "USA", "full_address": "300 South Fish Lake Rd, Volo, IL, 60073, USA", "source": "DataCenterMap (user-provided paste)", "notes": null, "lat": null, "lon": null }, "geometry": null },
{ "type": "Feature", "properties": { "name": "Chirisa Volo Technology Park YLO-01", "operator": "Chirisa", "street": "300 South Fish Lake Rd", "city": "Volo", "state": "IL", "postal_code": 60073.0, "country": "USA", "full_address": "300 South Fish Lake Rd, Volo, IL, 60073, USA", "source": "DataCenterMap (user-provided paste)", "notes": null, "lat": null, "lon": null }, "geometry": null },
{ "type": "Feature", "properties": { "name": "Chicago Board of Trade Building", "operator": "Apollo Global Management, Inc.", "street": "141 West Jackson", "city": "Chicago", "state": "IL", "postal_code": 60604.0, "country": "USA", "full_address": "141 West Jackson, Chicago, IL, 60604, USA", "source": "DataCenterMap (user-provided paste)", "notes": null, "lat": 41.8778674, "lon": -87.6320417 }, "geometry": { "type": "Point", "coordinates": [ -87.6320417, 41.8778674 ] } },
{ "type": "Feature", "properties": { "name": "1808 Swift Drive", "operator": "CenterPoint Properties", "street": "1808 Swift Drive", "city": "Oak Brook", "state": "IL", "postal_code": 60523.0, "country": "USA", "full_address": "1808 Swift Drive, Oak Brook, IL, 60523, USA", "source": "DataCenterMap (user-provided paste)", "notes": null, "lat": 41.8542957, "lon": -87.9221419 }, "geometry": { "type": "Point", "coordinates": [ -87.9221419, 41.8542957 ] } },
{ "type": "Feature", "properties": { "name": "360TCS Data Center", "operator": "360 Technology Center Solutions", "street": "360 E. 22nd St.", "city": "Lombard", "state": "IL", "postal_code": 60148.0, "country": "USA", "full_address": "360 E. 22nd St., Lombard, IL, 60148, USA", "source": "DataCenterMap (user-provided paste)", "notes": null, "lat": 41.8458113, "lon": -88.0072007 }, "geometry": { "type": "Point", "coordinates": [ -88.0072007, 41.8458113 ] } },
{ "type": "Feature", "properties": { "name": "XNet Critical Computing Facility", "operator": "XNet Information Systems, Inc.", "street": "3080 Ogden Ave", "city": "Lisle", "state": "IL", "postal_code": 60532.0, "country": "USA", "full_address": "3080 Ogden Ave, Lisle, IL, 60532, USA", "source": "DataCenterMap (user-provided paste)", "notes": null, "lat": 41.7967738, "lon": -88.1125544 }, "geometry": { "type": "Point", "coordinates": [ -88.1125544, 41.7967738 ] } },
{ "type": "Feature", "properties": { "name": "Centersquare - Chicago ORD1-B", "operator": "Csquare", "street": "350 East Cermak", "city": "Chicago", "state": "IL", "postal_code": 60609.0, "country": "USA", "full_address": "350 East Cermak, Chicago, IL, 60609, USA", "source": "DataCenterMap (user-provided paste)", "notes": null, "lat": 41.8537537, "lon": -87.6183798 }, "geometry": { "type": "Point", "coordinates": [ -87.6183798, 41.8537537 ] } },
{ "type": "Feature", "properties": { "name": "Midway Technology Center", "operator": "1547 Critical Systems Realty", "street": "40 E Garfield Blvd", "city": "Chicago", "state": "IL", "postal_code": 60615.0, "country": "USA", "full_address": "40 E Garfield Blvd, Chicago, IL, 60615, USA", "source": "DataCenterMap (user-provided paste)", "notes": null, "lat": 41.7954745, "lon": -87.6246339 }, "geometry": { "type": "Point", "coordinates": [ -87.6246339, 41.7954745 ] } },
{ "type": "Feature", "properties": { "name": "NetSource Naperville 1", "operator": "NetSource Communications, Inc.", "street": "2368 Corporate Lane", "city": "Naperville", "state": "IL", "postal_code": 60563.0, "country": "USA", "full_address": "2368 Corporate Lane, Naperville, IL, 60563, USA", "source": "DataCenterMap (user-provided paste)", "notes": null, "lat": 41.8113555, "lon": -88.1947111 }, "geometry": { "type": "Point", "coordinates": [ -88.1947111, 41.8113555 ] } },
{ "type": "Feature", "properties": { "name": "T5 Data Centers - T5@Chicago V", "operator": "T5 Data Centers", "street": null, "city": "TBA Elk Grove Village", "state": "IL", "postal_code": null, "country": "USA", "full_address": "TBA Elk Grove Village, IL, USA", "source": "DataCenterMap (user-provided paste)", "notes": "address_placeholder:within Elk Grove Village", "lat": null, "lon": null }, "geometry": null },
{ "type": "Feature", "properties": { "name": "Chirisa Volo Technology Park", "operator": "Chirisa", "street": "300 South Fish Lake Rd", "city": "Volo", "state": "IL", "postal_code": 60073.0, "country": "USA", "full_address": "300 South Fish Lake Rd, Volo, IL, 60073, USA", "source": "DataCenterMap (user-provided paste)", "notes": null, "lat": null, "lon": null }, "geometry": null },
{ "type": "Feature", "properties": { "name": "Stream DC Chicago III", "operator": "Stream Data Centers", "street": "2000 Landmeier Rd", "city": "Elk Grove Village", "state": "IL", "postal_code": 60007.0, "country": "USA", "full_address": "2000 Landmeier Rd, Elk Grove Village, IL, 60007, USA", "source": "DataCenterMap (user-provided paste)", "notes": null, "lat": 42.010555, "lon": -87.953266 }, "geometry": { "type": "Point", "coordinates": [ -87.953266, 42.010555 ] } },
{ "type": "Feature", "properties": { "name": "ColoHouse Chicago Cermak", "operator": "ColoHouse", "street": "350 E Cermak", "city": "Chicago", "state": "IL", "postal_code": 60616.0, "country": "USA", "full_address": "350 E Cermak, Chicago, IL, 60616, USA", "source": "DataCenterMap (user-provided paste)", "notes": null, "lat": 41.8528869, "lon": -87.6345274 }, "geometry": { "type": "Point", "coordinates": [ -87.6345274, 41.8528869 ] } },
{ "type": "Feature", "properties": { "name": "Naperville Data Center", "operator": "KARIS Critical", "street": "1940 Lucent Ln", "city": "Naperville", "state": "IL", "postal_code": 60563.0, "country": "USA", "full_address": "1940 Lucent Ln, Naperville, IL, 60563, USA", "source": "DataCenterMap (user-provided paste)", "notes": null, "lat": 41.8095399, "lon": -88.1225093 }, "geometry": { "type": "Point", "coordinates": [ -88.1225093, 41.8095399 ] } },
{ "type": "Feature", "properties": { "name": "CloudHQ ORD2", "operator": "CloudHQ", "street": "1200 E Algonquin Rd", "city": "Des Plaines", "state": "IL", "postal_code": 60016.0, "country": "USA", "full_address": "1200 E Algonquin Rd, Des Plaines, IL, 60016, USA", "source": "DataCenterMap (user-provided paste)", "notes": null, "lat": 42.0314622, "lon": -87.8885543 }, "geometry": { "type": "Point", "coordinates": [ -87.8885543, 42.0314622 ] } },
{ "type": "Feature", "properties": { "name": "T5 Data Centers - T5@Grayslake Campus", "operator": "T5 Data Centers", "street": "30907 N Alleghany Rd", "city": "Grayslake", "state": "IL", "postal_code": 60030.0, "country": "USA", "full_address": "30907 N Alleghany Rd, Grayslake, IL, 60030, USA", "source": "DataCenterMap (user-provided paste)", "notes": null, "lat": 42.3468847, "lon": -88.0532988 }, "geometry": { "type": "Point", "coordinates": [ -88.0532988, 42.3468847 ] } },
{ "type": "Feature", "properties": { "name": "Microsoft Hoffman Estates - Building 2", "operator": "Microsoft", "street": "Lakewood Blvd", "city": "Hoffman Estates", "state": "IL", "postal_code": 60192.0, "country": "USA", "full_address": "Lakewood Blvd, Hoffman Estates, IL, 60192, USA", "source": "DataCenterMap (user-provided paste)", "notes": null, "lat": 42.0742675, "lon": -88.1289682 }, "geometry": { "type": "Point", "coordinates": [ -88.1289682, 42.0742675 ] } },
{ "type": "Feature", "properties": { "name": "T5 Data Centers - T5@Chicago III", "operator": "T5 Data Centers", "street": "11650 W Grand Ave", "city": "Northlake", "state": "IL", "postal_code": 60164.0, "country": "USA", "full_address": "11650 W Grand Ave, Northlake, IL, 60164, USA", "source": "DataCenterMap (user-provided paste)", "notes": null, "lat": 41.9310571, "lon": -87.9145933 }, "geometry": { "type": "Point", "coordinates": [ -87.9145933, 41.9310571 ] } },
{ "type": "Feature", "properties": { "name": "Aligned ORD-03", "operator": "Aligned Data Centers", "street": "50 NW Point Blvd", "city": "Elk Grove Village", "state": "IL", "postal_code": 60007.0, "country": "USA", "full_address": "50 NW Point Blvd, Elk Grove Village, IL, 60007, USA", "source": "DataCenterMap (user-provided paste)", "notes": null, "lat": null, "lon": null }, "geometry": null },
{ "type": "Feature", "properties": { "name": "Aligned ORD-04", "operator": "Aligned Data Centers", "street": "150 NW Point Blvd", "city": "Elk Grove Village", "state": "IL", "postal_code": 60007.0, "country": "USA", "full_address": "150 NW Point Blvd, Elk Grove Village, IL, 60007, USA", "source": "DataCenterMap (user-provided paste)", "notes": null, "lat": null, "lon": null }, "geometry": null },
{ "type": "Feature", "properties": { "name": "CloudHQ ORD3", "operator": "CloudHQ", "street": "1200 E Algonquin Rd", "city": "Des Plaines", "state": "IL", "postal_code": 60016.0, "country": "USA", "full_address": "1200 E Algonquin Rd, Des Plaines, IL, 60016, USA", "source": "DataCenterMap (user-provided paste)", "notes": null, "lat": 42.0314622, "lon": -87.8885543 }, "geometry": { "type": "Point", "coordinates": [ -87.8885543, 42.0314622 ] } },
{ "type": "Feature", "properties": { "name": "Microsoft Hoffman Estates Campus", "operator": "Microsoft", "street": "Lakewood Blvd", "city": "Hoffman Estates", "state": "IL", "postal_code": 60192.0, "country": "USA", "full_address": "Lakewood Blvd, Hoffman Estates, IL, 60192, USA", "source": "DataCenterMap (user-provided paste)", "notes": null, "lat": 42.0742675, "lon": -88.1289682 }, "geometry": { "type": "Point", "coordinates": [ -88.1289682, 42.0742675 ] } },
{ "type": "Feature", "properties": { "name": "Microsoft Elk Grove Campus", "operator": "Microsoft", "street": "Elk Grove Technology Park, Innovation Dr & Oakton St", "city": "Elk Grove Village", "state": "IL", "postal_code": 60007.0, "country": "USA", "full_address": "Elk Grove Technology Park, Innovation Dr & Oakton St, Elk Grove Village, IL, 60007, USA", "source": "DataCenterMap (user-provided paste)", "notes": null, "lat": null, "lon": null }, "geometry": null },
{ "type": "Feature", "properties": { "name": "Microsoft Hoffman Estates - Building 1", "operator": "Microsoft", "street": "Lakewood Blvd", "city": "Hoffman Estates", "state": "IL", "postal_code": 60192.0, "country": "USA", "full_address": "Lakewood Blvd, Hoffman Estates, IL, 60192, USA", "source": "DataCenterMap (user-provided paste)", "notes": null, "lat": 42.0742675, "lon": -88.1289682 }, "geometry": { "type": "Point", "coordinates": [ -88.1289682, 42.0742675 ] } },
{ "type": "Feature", "properties": { "name": "CloudHQ ORD1", "operator": "CloudHQ", "street": "1200 E Algonquin Rd", "city": "Des Plaines", "state": "IL", "postal_code": 60016.0, "country": "USA", "full_address": "1200 E Algonquin Rd, Des Plaines, IL, 60016, USA", "source": "DataCenterMap (user-provided paste)", "notes": null, "lat": 42.0314622, "lon": -87.8885543 }, "geometry": { "type": "Point", "coordinates": [ -87.8885543, 42.0314622 ] } },
{ "type": "Feature", "properties": { "name": "Aligned ORD-02", "operator": "Aligned Data Centers", "street": "505 Northwest Avenue", "city": "Northlake", "state": "IL", "postal_code": 60164.0, "country": "USA", "full_address": "505 Northwest Avenue, Northlake, IL, 60164, USA", "source": "DataCenterMap (user-provided paste)", "notes": null, "lat": 41.9189097, "lon": -87.9192305 }, "geometry": { "type": "Point", "coordinates": [ -87.9192305, 41.9189097 ] } },
{ "type": "Feature", "properties": { "name": "HW Technology Park", "operator": "Hillwood Development Company", "street": "Millsdale Rd / Schweitzer Rd", "city": "Joliet", "state": "IL", "postal_code": 60421.0, "country": "USA", "full_address": "Millsdale Rd / Schweitzer Rd, Joliet, IL, 60421, USA", "source": "DataCenterMap (user-provided paste)", "notes": null, "lat": null, "lon": null }, "geometry": null },
{ "type": "Feature", "properties": { "name": "ColoHouse Chicago Wells", "operator": "ColoHouse", "street": "725 S Wells Street", "city": "Chicago", "state": "IL", "postal_code": 60607.0, "country": "USA", "full_address": "725 S Wells Street, Chicago, IL, 60607, USA", "source": "DataCenterMap (user-provided paste)", "notes": null, "lat": 41.8730545, "lon": -87.6334853 }, "geometry": { "type": "Point", "coordinates": [ -87.6334853, 41.8730545 ] } },
{ "type": "Feature", "properties": { "name": "Equinix CH5", "operator": "Equinix", "street": "2001 Lunt Ave", "city": "Elk Grove Village", "state": "IL", "postal_code": 60007.0, "country": "USA", "full_address": "2001 Lunt Ave, Elk Grove Village, IL, 60007, USA", "source": "DataCenterMap (user-provided paste)", "notes": null, "lat": 42.0014053, "lon": -87.9537245 }, "geometry": { "type": "Point", "coordinates": [ -87.9537245, 42.0014053 ] } },
{ "type": "Feature", "properties": { "name": "CDC - Chicago CH5 Data Center", "operator": "NTT DATA, Inc.", "street": "1250 N Arlington Heights Rd", "city": "Itasca", "state": "IL", "postal_code": 60143.0, "country": "USA", "full_address": "1250 N Arlington Heights Rd, Itasca, IL, 60143, USA", "source": "DataCenterMap (user-provided paste)", "notes": null, "lat": 41.9897134, "lon": -88.0030575 }, "geometry": { "type": "Point", "coordinates": [ -88.0030575, 41.9897134 ] } },
{ "type": "Feature", "properties": { "name": "EdgeConneX Chicago - EDCCHI01", "operator": "EdgeConneX", "street": "1800 Nicholas Blvd", "city": "Elk Grove Village", "state": "IL", "postal_code": 60007.0, "country": "USA", "full_address": "1800 Nicholas Blvd, Elk Grove Village, IL, 60007, USA", "source": "DataCenterMap (user-provided paste)", "notes": null, "lat": 42.0007753, "lon": -87.9507686 }, "geometry": { "type": "Point", "coordinates": [ -87.9507686, 42.0007753 ] } },
{ "type": "Feature", "properties": { "name": "Chicago Exchange", "operator": "Menlo Digital", "street": "601 W. Polk St", "city": "Chicago", "state": "IL", "postal_code": 60605.0, "country": "USA", "full_address": "601 W. Polk St, Chicago, IL, 60605, USA", "source": "DataCenterMap (user-provided paste)", "notes": null, "lat": 41.8716062, "lon": -87.6430697 }, "geometry": { "type": "Point", "coordinates": [ -87.6430697, 41.8716062 ] } },
{ "type": "Feature", "properties": { "name": "Colovore ORD01", "operator": "Colovore", "street": null, "city": "TBA Aurora", "state": "IL", "postal_code": null, "country": "USA", "full_address": "TBA Aurora, IL, USA", "source": "DataCenterMap (user-provided paste)", "notes": "address_placeholder:within Aurora, 41 miles from Chicago", "lat": null, "lon": null }, "geometry": null },
{ "type": "Feature", "properties": { "name": "FDCservers.net", "operator": "FDCservers.net LLC", "street": "141 West Jackson Blvd.", "city": "Chicago", "state": "IL", "postal_code": 60604.0, "country": "USA", "full_address": "141 West Jackson Blvd., Chicago, IL, 60604, USA", "source": "DataCenterMap (user-provided paste)", "notes": null, "lat": 41.8778674, "lon": -87.6320417 }, "geometry": { "type": "Point", "coordinates": [ -87.6320417, 41.8778674 ] } },
{ "type": "Feature", "properties": { "name": "LexisNexis Oak Brook", "operator": "LexisNexis", "street": "1808 Swift Dr", "city": "Oak Brook", "state": "IL", "postal_code": 60523.0, "country": "USA", "full_address": "1808 Swift Dr, Oak Brook, IL, 60523, USA", "source": "DataCenterMap (user-provided paste)", "notes": null, "lat": 41.8542957, "lon": -87.9221419 }, "geometry": { "type": "Point", "coordinates": [ -87.9221419, 41.8542957 ] } },
{ "type": "Feature", "properties": { "name": "Connect Chicago", "operator": "Connect Data Centers by Oppidan", "street": "245 Kehoe Blvd", "city": "Carol Stream", "state": "IL", "postal_code": 60188.0, "country": "USA", "full_address": "245 Kehoe Blvd, Carol Stream, IL, 60188, USA", "source": "DataCenterMap (user-provided paste)", "notes": null, "lat": 41.9096097, "lon": -88.1139393 }, "geometry": { "type": "Point", "coordinates": [ -88.1139393, 41.9096097 ] } },
{ "type": "Feature", "properties": { "name": "Edged Chicago ORD3", "operator": "Edged Energy", "street": "2725 Bilter Rd", "city": "Aurora", "state": "IL", "postal_code": 60502.0, "country": "USA", "full_address": "2725 Bilter Rd, Aurora, IL, 60502, USA", "source": "DataCenterMap (user-provided paste)", "notes": null, "lat": 41.8066666, "lon": -88.2658507 }, "geometry": { "type": "Point", "coordinates": [ -88.2658507, 41.8066666 ] } },
{ "type": "Feature", "properties": { "name": "Edged Chicago ORD2", "operator": "Edged Energy", "street": "2835 Bilter Rd", "city": "Aurora", "state": "IL", "postal_code": 60502.0, "country": "USA", "full_address": "2835 Bilter Rd, Aurora, IL, 60502, USA", "source": "DataCenterMap (user-provided paste)", "notes": null, "lat": 41.8066666, "lon": -88.2658507 }, "geometry": { "type": "Point", "coordinates": [ -88.2658507, 41.8066666 ] } },
{ "type": "Feature", "properties": { "name": "Edged Chicago ORD1", "operator": "Edged Energy", "street": "2815 Bilter Rd", "city": "Aurora", "state": "IL", "postal_code": 60502.0, "country": "USA", "full_address": "2815 Bilter Rd, Aurora, IL, 60502, USA", "source": "DataCenterMap (user-provided paste)", "notes": null, "lat": 41.8066666, "lon": -88.2658507 }, "geometry": { "type": "Point", "coordinates": [ -88.2658507, 41.8066666 ] } },
{ "type": "Feature", "properties": { "name": "8080 S DuSable Lake Shore Drive", "operator": "Related Digital", "street": "8080 S DuSable Lake Shore Dr", "city": "Chicago", "state": "IL", "postal_code": 60617.0, "country": "USA", "full_address": "8080 S DuSable Lake Shore Dr, Chicago, IL, 60617, USA", "source": "DataCenterMap (user-provided paste)", "notes": null, "lat": 41.7810094, "lon": -87.5748966 }, "geometry": { "type": "Point", "coordinates": [ -87.5748966, 41.7810094 ] } },
{ "type": "Feature", "properties": { "name": "Meta DeKalb Campus", "operator": "Meta", "street": "1550-2050 Metaverse Wy", "city": "DeKalb", "state": "IL", "postal_code": 60115.0, "country": "USA", "full_address": "1550-2050 Metaverse Wy, DeKalb, IL, 60115, USA", "source": "DataCenterMap (user-provided paste)", "notes": null, "lat": null, "lon": null }, "geometry": null },
{ "type": "Feature", "properties": { "name": "Compass Hoffman Estates", "operator": "Compass Datacenters", "street": "3333 Beverly Rd", "city": "Hoffman Estates", "state": "IL", "postal_code": 60179.0, "country": "USA", "full_address": "3333 Beverly Rd, Hoffman Estates, IL, 60179, USA", "source": "DataCenterMap (user-provided paste)", "notes": null, "lat": 42.0799586, "lon": -88.2234921 }, "geometry": { "type": "Point", "coordinates": [ -88.2234921, 42.0799586 ] } },
{ "type": "Feature", "properties": { "name": "Microsoft Plano (IL)", "operator": "Microsoft", "street": "Eldamain Rd & Corneils Rd", "city": "Plano", "state": "IL", "postal_code": 60545.0, "country": "USA", "full_address": "Eldamain Rd & Corneils Rd, Plano, IL, 60545, USA", "source": "DataCenterMap (user-provided paste)", "notes": null, "lat": null, "lon": null }, "geometry": null },
{ "type": "Feature", "properties": { "name": "Morris Technology Park", "operator": "Tract", "street": "US-6 & County Rd 2000 E", "city": "Morris", "state": "IL", "postal_code": 60450.0, "country": "USA", "full_address": "US-6 & County Rd 2000 E, Morris, IL, 60450, USA", "source": "DataCenterMap (user-provided paste)", "notes": null, "lat": null, "lon": null }, "geometry": null },
{ "type": "Feature", "properties": { "name": "Lumen Chicago 3", "operator": "Lumen", "street": "200 N LaSalle St", "city": "Chicago", "state": "IL", "postal_code": 60601.0, "country": "USA", "full_address": "200 N LaSalle St, Chicago, IL, 60601, USA", "source": "DataCenterMap (user-provided paste)", "notes": null, "lat": 41.8859286, "lon": -87.6327993 }, "geometry": { "type": "Point", "coordinates": [ -87.6327993, 41.8859286 ] } },
{ "type": "Feature", "properties": { "name": "Lumen South Holland 1", "operator": "Lumen", "street": "200 E 166th St", "city": "South Holland", "state": "IL", "postal_code": 60473.0, "country": "USA", "full_address": "200 E 166th St, South Holland, IL, 60473, USA", "source": "DataCenterMap (user-provided paste)", "notes": null, "lat": 41.593701, "lon": -87.611251 }, "geometry": { "type": "Point", "coordinates": [ -87.611251, 41.593701 ] } },
{ "type": "Feature", "properties": { "name": "GigeNET Chicago", "operator": "Gigenet", "street": "545 E. Algonquin Rd.", "city": "Arlington Heights", "state": "IL", "postal_code": 60005.0, "country": "USA", "full_address": "545 E. Algonquin Rd., Arlington Heights, IL, 60005, USA", "source": "DataCenterMap (user-provided paste)", "notes": null, "lat": 42.0413436, "lon": -87.9757235 }, "geometry": { "type": "Point", "coordinates": [ -87.9757235, 42.0413436 ] } },
{ "type": "Feature", "properties": { "name": "Volico Chicago", "operator": "Volico Data Center", "street": "350 E Cermak Rd", "city": "Chicago", "state": "IL", "postal_code": 60616.0, "country": "USA", "full_address": "350 E Cermak Rd, Chicago, IL, 60616, USA", "source": "DataCenterMap (user-provided paste)", "notes": null, "lat": 41.8537537, "lon": -87.6183798 }, "geometry": { "type": "Point", "coordinates": [ -87.6183798, 41.8537537 ] } },
{ "type": "Feature", "properties": { "name": "NaviSite Chicago", "operator": "NaviSite, Inc.", "street": "725 S Wells", "city": "Chicago", "state": "IL", "postal_code": 60610.0, "country": "USA", "full_address": "725 S Wells, Chicago, IL, 60610, USA", "source": "DataCenterMap (user-provided paste)", "notes": null, "lat": 41.8730545, "lon": -87.6334853 }, "geometry": { "type": "Point", "coordinates": [ -87.6334853, 41.8730545 ] } },
{ "type": "Feature", "properties": { "name": "Lumen Chicago 2", "operator": "Lumen", "street": "900 N. Kingsbury Street", "city": "Chicago", "state": "IL", "postal_code": 60610.0, "country": "USA", "full_address": "900 N. Kingsbury Street, Chicago, IL, 60610, USA", "source": "DataCenterMap (user-provided paste)", "notes": null, "lat": 41.897947, "lon": -87.643443 }, "geometry": { "type": "Point", "coordinates": [ -87.643443, 41.897947 ] } }
]
}
